station,latitude,longitude,dominant_pollutant,dominant_value,AQI,AQI_Category,datetime,data_status,hotspot_status,hotspot_priority,outdoor_decision,health_advisory,precautions,travel_advisory,available_pollutants_count,confidence_score,confidence_level,GRAP_Stage,GRAP_Advisory
"Alipur, Delhi - DPCC",28.815329,77.15301,pm10,55.0,55.0,Satisfactory,2026-04-29 04:00:00+05:30,Fresh,Normal,Low,Generally safe,"Air quality is acceptable, but very sensitive people should avoid prolonged outdoor exertion.",Carry a mask if you are sensitive to pollution.,Travel is mostly safe.,6,100,High,No GRAP Stage,AQI below GRAP trigger level
"Anand Vihar, New Delhi - DPCC",28.646835,77.316032,pm25,125.0,304.07,Very Poor,2026-04-29 04:00:00+05:30,Fresh,Hotspot,High,Stay indoors if possible,Very poor air quality. PM25 is the major pollutant.,Use N95 mask outdoors. Keep windows closed. Use air purifier if available.,Avoid unnecessary travel. Prefer metro and enclosed transport.,6,100,High,Stage II - Very Poor,AQI Very Poor: stronger restrictions and public advisory required
"Arya Nagar, Bahadurgarh - HSPCB",28.6701,76.9254,pm25,74.6,147.43,Moderate,2026-04-28 16:30:00+05:30,Delayed,Normal,Low,Go outside with precautions,Moderate pollution level. PM25 is the dominant pollutant.,Avoid heavy outdoor exercise. Sensitive groups should use an N95 mask.,Prefer metro or low-traffic routes.,6,85,High,No GRAP Stage,AQI below GRAP trigger level
"Aya Nagar, New Delhi - IMD",28.474261,77.131606,pm10,192.22,161.61,Moderate,2026-04-29 03:30:00+05:30,Fresh,Normal,Low,Go outside with precautions,Moderate pollution level. PM10 is the dominant pollutant.,Avoid heavy outdoor exercise. Sensitive groups should use an N95 mask.,Prefer metro or low-traffic routes.,5,100,High,No GRAP Stage,AQI below GRAP trigger level
"Burari Crossing, New Delhi - IMD",28.7256504,77.2011573,pm10,189.32,159.68,Moderate,2026-04-29 03:30:00+05:30,Fresh,Normal,Low,Go outside with precautions,Moderate pollution level. PM10 is the dominant pollutant.,Avoid heavy outdoor exercise. Sensitive groups should use an N95 mask.,Prefer metro or low-traffic routes.,5,100,High,No GRAP Stage,AQI below GRAP trigger level
"CRRI Mathura Road, New Delhi - IMD",28.5512005,77.2735737,pm10,235.46,190.34,Moderate,2026-04-29 03:30:00+05:30,Fresh,Normal,Low,Go outside with precautions,Moderate pollution level. PM10 is the dominant pollutant.,Avoid heavy outdoor exercise. Sensitive groups should use an N95 mask.,Prefer metro or low-traffic routes.,5,100,High,No GRAP Stage,AQI below GRAP trigger level
"DTU, New Delhi - CPCB",28.7500499,77.1112615,pm10,120.0,113.62,Moderate,2026-04-29 03:45:00+05:30,Fresh,Normal,Low,Go outside with precautions,Moderate pollution level. PM10 is the dominant pollutant.,Avoid heavy outdoor exercise. Sensitive groups should use an N95 mask.,Prefer metro or low-traffic routes.,6,100,High,No GRAP Stage,AQI below GRAP trigger level
"Dr. Karni Singh Shooting Range, Delhi - DPCC",28.498571,77.26484,pm10,278.0,228.0,Poor,2026-04-29 04:00:00+05:30,Fresh,Emerging Hotspot,Medium,Avoid unnecessary outdoor activity,Poor air quality. PM10 is likely causing health risk.,"Wear N95 mask. Avoid jogging, cycling, and long exposure.",Avoid high-traffic routes and prefer public transport.,6,100,High,Stage I - Poor,AQI Poor: basic pollution control measures advised
"Dwarka-Sector 8, Delhi - DPCC ",28.5710274,77.0719006,pm10,96.0,96.0,Satisfactory,2026-04-29 04:00:00+05:30,Fresh,Normal,Low,Generally safe,"Air quality is acceptable, but very sensitive people should avoid prolonged outdoor exertion.",Carry a mask if you are sensitive to pollution.,Travel is mostly safe.,6,100,High,No GRAP Stage,AQI below GRAP trigger level
"IGI Airport (T3), Delhi - IMD",28.5627763,77.1180053,pm10,116.92,111.58,Moderate,2026-04-29 03:30:00+05:30,Fresh,Normal,Low,Go outside with precautions,Moderate pollution level. PM10 is the dominant pollutant.,Avoid heavy outdoor exercise. Sensitive groups should use an N95 mask.,Prefer metro or low-traffic routes.,4,85,High,No GRAP Stage,AQI below GRAP trigger level
"IHBAS, Dilshad Garden,New Delhi - CPCB",28.6811736,77.3025234,pm25,108.8,261.77,Poor,2026-04-29 03:45:00+05:30,Fresh,Emerging Hotspot,Medium,Avoid unnecessary outdoor activity,Poor air quality. PM25 is likely causing health risk.,"Wear N95 mask. Avoid jogging, cycling, and long exposure.",Avoid high-traffic routes and prefer public transport.,6,100,High,Stage I - Poor,AQI Poor: basic pollution control measures advised
"ITO, New Delhi - CPCB",28.628624,77.24106,pm10,188.0,158.81,Moderate,2026-04-29 03:30:00+05:30,Fresh,Normal,Low,Go outside with precautions,Moderate pollution level. PM10 is the dominant pollutant.,Avoid heavy outdoor exercise. Sensitive groups should use an N95 mask.,Prefer metro or low-traffic routes.,6,100,High,No GRAP Stage,AQI below GRAP trigger level
"Jawaharlal Nehru Stadium, Delhi - DPCC",28.58028,77.233829,pm10,278.0,228.0,Poor,2026-04-29 04:00:00+05:30,Fresh,Emerging Hotspot,Medium,Avoid unnecessary outdoor activity,Poor air quality. PM10 is likely causing health risk.,"Wear N95 mask. Avoid jogging, cycling, and long exposure.",Avoid high-traffic routes and prefer public transport.,5,100,High,Stage I - Poor,AQI Poor: basic pollution control measures advised
"Lodhi Road, New Delhi - IMD",28.5918245,77.2273074,pm10,238.1,192.09,Moderate,2026-04-29 03:30:00+05:30,Fresh,Normal,Low,Go outside with precautions,Moderate pollution level. PM10 is the dominant pollutant.,Avoid heavy outdoor exercise. Sensitive groups should use an N95 mask.,Prefer metro or low-traffic routes.,5,100,High,No GRAP Stage,AQI below GRAP trigger level
"Loni, Ghaziabad - UPPCB",28.757294,77.278792,pm10,523.0,454.89,Severe,2026-04-29 02:15:00+05:30,Fresh,Hotspot,Critical,Do not go outside unless necessary,Severe air pollution. PM10 level is dangerous.,Avoid outdoor exposure. Use N95/N99 mask if travel is unavoidable.,"Avoid travel. If urgent, choose shortest low-exposure route.",5,100,High,Stage IV - Severe+,AQI Severe+: emergency-level restrictions and avoid outdoor exposure
"Major Dhyan Chand National Stadium, Delhi - DPCC",28.611281,77.237738,pm10,211.0,174.09,Moderate,2026-04-29 04:00:00+05:30,Fresh,Normal,Low,Go outside with precautions,Moderate pollution level. PM10 is the dominant pollutant.,Avoid heavy outdoor exercise. Sensitive groups should use an N95 mask.,Prefer metro or low-traffic routes.,5,100,High,No GRAP Stage,AQI below GRAP trigger level
"Mandir Marg, New Delhi - DPCC",28.636429,77.201067,pm25,86.0,186.34,Moderate,2026-04-29 04:00:00+05:30,Fresh,Normal,Low,Go outside with precautions,Moderate pollution level. PM25 is the dominant pollutant.,Avoid heavy outdoor exercise. Sensitive groups should use an N95 mask.,Prefer metro or low-traffic routes.,6,100,High,No GRAP Stage,AQI below GRAP trigger level
"NSIT Dwarka, Delhi - CPCB",28.60909,77.0325413,pm10,90.9,90.9,Satisfactory,2026-04-29 03:45:00+05:30,Fresh,Normal,Low,Generally safe,"Air quality is acceptable, but very sensitive people should avoid prolonged outdoor exertion.",Carry a mask if you are sensitive to pollution.,Travel is mostly safe.,6,100,High,No GRAP Stage,AQI below GRAP trigger level
"North Campus, DU, Delhi - IMD",28.6573814,77.1585447,pm10,229.3,186.25,Moderate,2026-04-29 03:30:00+05:30,Fresh,Normal,Low,Go outside with precautions,Moderate pollution level. PM10 is the dominant pollutant.,Avoid heavy outdoor exercise. Sensitive groups should use an N95 mask.,Prefer metro or low-traffic routes.,5,100,High,No GRAP Stage,AQI below GRAP trigger level
"Patparganj, Delhi - DPCC",28.623748,77.287205,pm10,238.0,192.03,Moderate,2026-04-29 04:00:00+05:30,Fresh,Normal,Low,Go outside with precautions,Moderate pollution level. PM10 is the dominant pollutant.,Avoid heavy outdoor exercise. Sensitive groups should use an N95 mask.,Prefer metro or low-traffic routes.,6,100,High,No GRAP Stage,AQI below GRAP trigger level
"Punjabi Bagh, Delhi - DPCC",28.674045,77.131023,pm10,127.0,118.28,Moderate,2026-04-29 04:00:00+05:30,Fresh,Normal,Low,Go outside with precautions,Moderate pollution level. PM10 is the dominant pollutant.,Avoid heavy outdoor exercise. Sensitive groups should use an N95 mask.,Prefer metro or low-traffic routes.,6,100,High,No GRAP Stage,AQI below GRAP trigger level
"Pusa, Delhi - DPCC",28.639645,77.146262,pm10,174.0,149.5,Moderate,2026-04-29 04:00:00+05:30,Fresh,Normal,Low,Go outside with precautions,Moderate pollution level. PM10 is the dominant pollutant.,Avoid heavy outdoor exercise. Sensitive groups should use an N95 mask.,Prefer metro or low-traffic routes.,6,100,High,No GRAP Stage,AQI below GRAP trigger level
"Pusa, Delhi - IMD",28.639645,77.146263,pm10,303.4,253.4,Poor,2026-04-28 15:30:00+05:30,Delayed,Emerging Hotspot,Medium,Avoid unnecessary outdoor activity,Poor air quality. PM10 is likely causing health risk.,"Wear N95 mask. Avoid jogging, cycling, and long exposure.",Avoid high-traffic routes and prefer public transport.,5,85,High,Stage I - Poor,AQI Poor: basic pollution control measures advised
"R K Puram, Delhi - DPCC",28.563262,77.186937,pm10,194.0,162.79,Moderate,2026-04-29 04:00:00+05:30,Fresh,Normal,Low,Go outside with precautions,Moderate pollution level. PM10 is the dominant pollutant.,Avoid heavy outdoor exercise. Sensitive groups should use an N95 mask.,Prefer metro or low-traffic routes.,6,100,High,No GRAP Stage,AQI below GRAP trigger level
"Sector - 125, Noida, UP - UPPCB",28.5447608,77.3231257,pm10,217.0,178.07,Moderate,2026-04-29 03:45:00+05:30,Fresh,Normal,Low,Go outside with precautions,Moderate pollution level. PM10 is the dominant pollutant.,Avoid heavy outdoor exercise. Sensitive groups should use an N95 mask.,Prefer metro or low-traffic routes.,6,100,High,No GRAP Stage,AQI below GRAP trigger level
"Sector-1, Noida - UPPCB",28.589247,77.321962,pm10,282.0,232.0,Poor,2026-04-29 03:45:00+05:30,Fresh,Emerging Hotspot,Medium,Avoid unnecessary outdoor activity,Poor air quality. PM10 is likely causing health risk.,"Wear N95 mask. Avoid jogging, cycling, and long exposure.",Avoid high-traffic routes and prefer public transport.,6,100,High,Stage I - Poor,AQI Poor: basic pollution control measures advised
"Shadipur, Delhi - CPCB",28.6514781,77.1473105,pm25,46.6,77.36,Satisfactory,2026-04-29 03:30:00+05:30,Fresh,Normal,Low,Generally safe,"Air quality is acceptable, but very sensitive people should avoid prolonged outdoor exertion.",Carry a mask if you are sensitive to pollution.,Travel is mostly safe.,5,100,High,No GRAP Stage,AQI below GRAP trigger level
"Sirifort, Delhi - CPCB",28.5504249,77.2159377,pm10,336.74,286.74,Poor,2026-04-29 03:45:00+05:30,Fresh,Emerging Hotspot,Medium,Avoid unnecessary outdoor activity,Poor air quality. PM10 is likely causing health risk.,"Wear N95 mask. Avoid jogging, cycling, and long exposure.",Avoid high-traffic routes and prefer public transport.,6,100,High,Stage I - Poor,AQI Poor: basic pollution control measures advised
"Vikas Sadan, Gurugram - HSPCB",28.4501238,77.0263051,pm10,171.0,147.51,Moderate,2026-04-29 03:30:00+05:30,Fresh,Normal,Low,Go outside with precautions,Moderate pollution level. PM10 is the dominant pollutant.,Avoid heavy outdoor exercise. Sensitive groups should use an N95 mask.,Prefer metro or low-traffic routes.,6,100,High,No GRAP Stage,AQI below GRAP trigger level
"Vivek Vihar, Delhi - DPCC",28.672342,77.31526,pm10,216.0,177.41,Moderate,2026-04-29 03:45:00+05:30,Fresh,Normal,Low,Go outside with precautions,Moderate pollution level. PM10 is the dominant pollutant.,Avoid heavy outdoor exercise. Sensitive groups should use an N95 mask.,Prefer metro or low-traffic routes.,6,100,High,No GRAP Stage,AQI below GRAP trigger level
