station,latitude,longitude,dominant_pollutant,dominant_value,AQI,AQI_Category,datetime,data_status,hotspot_status,hotspot_priority,outdoor_decision,health_advisory,precautions,travel_advisory,available_pollutants_count,confidence_score,confidence_level,GRAP_Stage,GRAP_Advisory
"Alipur, Delhi - DPCC",28.815329,77.15301,pm10,290.0,240.0,Poor,2026-04-28 23:45:00+05:30,Fresh,Emerging Hotspot,Medium,Avoid unnecessary outdoor activity,Poor air quality. PM10 is likely causing health risk.,"Wear N95 mask. Avoid jogging, cycling, and long exposure.",Avoid high-traffic routes and prefer public transport.,6,100,High,Stage I - Poor,AQI Poor: basic pollution control measures advised
"Anand Vihar, New Delhi - DPCC",28.646835,77.316032,pm10,338.0,288.0,Poor,2026-04-28 23:45:00+05:30,Fresh,Emerging Hotspot,Medium,Avoid unnecessary outdoor activity,Poor air quality. PM10 is likely causing health risk.,"Wear N95 mask. Avoid jogging, cycling, and long exposure.",Avoid high-traffic routes and prefer public transport.,5,100,High,Stage I - Poor,AQI Poor: basic pollution control measures advised
"Arya Nagar, Bahadurgarh - HSPCB",28.6701,76.9254,pm25,74.6,147.43,Moderate,2026-04-28 16:30:00+05:30,Fresh,Normal,Low,Go outside with precautions,Moderate pollution level. PM25 is the dominant pollutant.,Avoid heavy outdoor exercise. Sensitive groups should use an N95 mask.,Prefer metro or low-traffic routes.,6,100,High,No GRAP Stage,AQI below GRAP trigger level
"Ashok Vihar, Delhi - DPCC",28.695381,77.181665,pm10,345.0,295.0,Poor,2026-04-28 23:45:00+05:30,Fresh,Emerging Hotspot,Medium,Avoid unnecessary outdoor activity,Poor air quality. PM10 is likely causing health risk.,"Wear N95 mask. Avoid jogging, cycling, and long exposure.",Avoid high-traffic routes and prefer public transport.,6,100,High,Stage I - Poor,AQI Poor: basic pollution control measures advised
"Aya Nagar, New Delhi - IMD",28.474261,77.131606,pm10,285.45,235.45,Poor,2026-04-28 23:45:00+05:30,Fresh,Emerging Hotspot,Medium,Avoid unnecessary outdoor activity,Poor air quality. PM10 is likely causing health risk.,"Wear N95 mask. Avoid jogging, cycling, and long exposure.",Avoid high-traffic routes and prefer public transport.,5,100,High,Stage I - Poor,AQI Poor: basic pollution control measures advised
"Bawana, Delhi - DPCC",28.7762,77.051074,pm10,334.0,284.0,Poor,2026-04-28 23:45:00+05:30,Fresh,Emerging Hotspot,Medium,Avoid unnecessary outdoor activity,Poor air quality. PM10 is likely causing health risk.,"Wear N95 mask. Avoid jogging, cycling, and long exposure.",Avoid high-traffic routes and prefer public transport.,6,100,High,Stage I - Poor,AQI Poor: basic pollution control measures advised
"Burari Crossing, New Delhi - IMD",28.7256504,77.2011573,pm10,321.77,271.77,Poor,2026-04-28 23:45:00+05:30,Fresh,Emerging Hotspot,Medium,Avoid unnecessary outdoor activity,Poor air quality. PM10 is likely causing health risk.,"Wear N95 mask. Avoid jogging, cycling, and long exposure.",Avoid high-traffic routes and prefer public transport.,4,85,High,Stage I - Poor,AQI Poor: basic pollution control measures advised
"CRRI Mathura Road, New Delhi - IMD",28.5512005,77.2735737,pm25,105.95,252.04,Poor,2026-04-28 23:45:00+05:30,Fresh,Emerging Hotspot,Medium,Avoid unnecessary outdoor activity,Poor air quality. PM25 is likely causing health risk.,"Wear N95 mask. Avoid jogging, cycling, and long exposure.",Avoid high-traffic routes and prefer public transport.,5,100,High,Stage I - Poor,AQI Poor: basic pollution control measures advised
"DTU, New Delhi - CPCB",28.7500499,77.1112615,pm10,268.26,218.26,Poor,2026-04-28 23:45:00+05:30,Fresh,Emerging Hotspot,Medium,Avoid unnecessary outdoor activity,Poor air quality. PM10 is likely causing health risk.,"Wear N95 mask. Avoid jogging, cycling, and long exposure.",Avoid high-traffic routes and prefer public transport.,6,100,High,Stage I - Poor,AQI Poor: basic pollution control measures advised
"Dr. Karni Singh Shooting Range, Delhi - DPCC",28.498571,77.26484,pm10,274.0,224.0,Poor,2026-04-28 23:45:00+05:30,Fresh,Emerging Hotspot,Medium,Avoid unnecessary outdoor activity,Poor air quality. PM10 is likely causing health risk.,"Wear N95 mask. Avoid jogging, cycling, and long exposure.",Avoid high-traffic routes and prefer public transport.,6,100,High,Stage I - Poor,AQI Poor: basic pollution control measures advised
"Dwarka-Sector 8, Delhi - DPCC ",28.5710274,77.0719006,pm10,307.0,257.0,Poor,2026-04-28 23:45:00+05:30,Fresh,Emerging Hotspot,Medium,Avoid unnecessary outdoor activity,Poor air quality. PM10 is likely causing health risk.,"Wear N95 mask. Avoid jogging, cycling, and long exposure.",Avoid high-traffic routes and prefer public transport.,6,100,High,Stage I - Poor,AQI Poor: basic pollution control measures advised
"IGI Airport (T3), Delhi - IMD",28.5627763,77.1180053,pm10,320.98,270.98,Poor,2026-04-28 23:45:00+05:30,Fresh,Emerging Hotspot,Medium,Avoid unnecessary outdoor activity,Poor air quality. PM10 is likely causing health risk.,"Wear N95 mask. Avoid jogging, cycling, and long exposure.",Avoid high-traffic routes and prefer public transport.,5,100,High,Stage I - Poor,AQI Poor: basic pollution control measures advised
"IHBAS, Dilshad Garden,New Delhi - CPCB",28.6811736,77.3025234,pm25,140.7,316.12,Very Poor,2026-04-28 23:30:00+05:30,Fresh,Hotspot,High,Stay indoors if possible,Very poor air quality. PM25 is the major pollutant.,Use N95 mask outdoors. Keep windows closed. Use air purifier if available.,Avoid unnecessary travel. Prefer metro and enclosed transport.,6,100,High,Stage II - Very Poor,AQI Very Poor: stronger restrictions and public advisory required
"ITO, New Delhi - CPCB",28.628624,77.24106,pm10,275.0,225.0,Poor,2026-04-28 23:30:00+05:30,Fresh,Emerging Hotspot,Medium,Avoid unnecessary outdoor activity,Poor air quality. PM10 is likely causing health risk.,"Wear N95 mask. Avoid jogging, cycling, and long exposure.",Avoid high-traffic routes and prefer public transport.,5,100,High,Stage I - Poor,AQI Poor: basic pollution control measures advised
"Jahangirpuri, Delhi - DPCC",28.73282,77.170633,pm10,335.0,285.0,Poor,2026-04-28 23:45:00+05:30,Fresh,Emerging Hotspot,Medium,Avoid unnecessary outdoor activity,Poor air quality. PM10 is likely causing health risk.,"Wear N95 mask. Avoid jogging, cycling, and long exposure.",Avoid high-traffic routes and prefer public transport.,6,100,High,Stage I - Poor,AQI Poor: basic pollution control measures advised
"Jawaharlal Nehru Stadium, Delhi - DPCC",28.58028,77.233829,pm10,305.0,255.0,Poor,2026-04-28 23:45:00+05:30,Fresh,Emerging Hotspot,Medium,Avoid unnecessary outdoor activity,Poor air quality. PM10 is likely causing health risk.,"Wear N95 mask. Avoid jogging, cycling, and long exposure.",Avoid high-traffic routes and prefer public transport.,5,100,High,Stage I - Poor,AQI Poor: basic pollution control measures advised
"Lodhi Road, New Delhi - IMD",28.5918245,77.2273074,pm10,349.8,299.8,Poor,2026-04-28 23:45:00+05:30,Fresh,Emerging Hotspot,Medium,Avoid unnecessary outdoor activity,Poor air quality. PM10 is likely causing health risk.,"Wear N95 mask. Avoid jogging, cycling, and long exposure.",Avoid high-traffic routes and prefer public transport.,5,100,High,Stage I - Poor,AQI Poor: basic pollution control measures advised
"Loni, Ghaziabad - UPPCB",28.757294,77.278792,pm10,469.0,423.26,Severe,2026-04-28 23:45:00+05:30,Fresh,Hotspot,Critical,Do not go outside unless necessary,Severe air pollution. PM10 level is dangerous.,Avoid outdoor exposure. Use N95/N99 mask if travel is unavoidable.,"Avoid travel. If urgent, choose shortest low-exposure route.",6,100,High,Stage III - Severe,AQI Severe: avoid outdoor activity and reduce traffic exposure
"Major Dhyan Chand National Stadium, Delhi - DPCC",28.611281,77.237738,pm10,305.0,255.0,Poor,2026-04-28 23:45:00+05:30,Fresh,Emerging Hotspot,Medium,Avoid unnecessary outdoor activity,Poor air quality. PM10 is likely causing health risk.,"Wear N95 mask. Avoid jogging, cycling, and long exposure.",Avoid high-traffic routes and prefer public transport.,6,100,High,Stage I - Poor,AQI Poor: basic pollution control measures advised
"Mandir Marg, New Delhi - DPCC",28.636429,77.201067,pm25,122.0,301.77,Very Poor,2026-04-28 23:45:00+05:30,Fresh,Hotspot,High,Stay indoors if possible,Very poor air quality. PM25 is the major pollutant.,Use N95 mask outdoors. Keep windows closed. Use air purifier if available.,Avoid unnecessary travel. Prefer metro and enclosed transport.,6,100,High,Stage II - Very Poor,AQI Very Poor: stronger restrictions and public advisory required
"Mundka, Delhi - DPCC",28.684678,77.076574,pm10,356.0,307.27,Very Poor,2026-04-28 23:45:00+05:30,Fresh,Hotspot,High,Stay indoors if possible,Very poor air quality. PM10 is the major pollutant.,Use N95 mask outdoors. Keep windows closed. Use air purifier if available.,Avoid unnecessary travel. Prefer metro and enclosed transport.,5,100,High,Stage II - Very Poor,AQI Very Poor: stronger restrictions and public advisory required
"NSIT Dwarka, Delhi - CPCB",28.60909,77.0325413,pm10,156.3,137.74,Moderate,2026-04-28 23:30:00+05:30,Fresh,Normal,Low,Go outside with precautions,Moderate pollution level. PM10 is the dominant pollutant.,Avoid heavy outdoor exercise. Sensitive groups should use an N95 mask.,Prefer metro or low-traffic routes.,6,100,High,No GRAP Stage,AQI below GRAP trigger level
"Najafgarh, Delhi - DPCC",28.570173,76.933762,pm10,327.0,277.0,Poor,2026-04-28 23:45:00+05:30,Fresh,Emerging Hotspot,Medium,Avoid unnecessary outdoor activity,Poor air quality. PM10 is likely causing health risk.,"Wear N95 mask. Avoid jogging, cycling, and long exposure.",Avoid high-traffic routes and prefer public transport.,6,100,High,Stage I - Poor,AQI Poor: basic pollution control measures advised
"Narela, Delhi - DPCC",28.822836,77.101981,pm10,356.0,307.27,Very Poor,2026-04-28 23:45:00+05:30,Fresh,Hotspot,High,Stay indoors if possible,Very poor air quality. PM10 is the major pollutant.,Use N95 mask outdoors. Keep windows closed. Use air purifier if available.,Avoid unnecessary travel. Prefer metro and enclosed transport.,6,100,High,Stage II - Very Poor,AQI Very Poor: stronger restrictions and public advisory required
"Nehru Nagar, Delhi - DPCC",28.56789,77.250515,pm10,288.0,238.0,Poor,2026-04-28 23:45:00+05:30,Fresh,Emerging Hotspot,Medium,Avoid unnecessary outdoor activity,Poor air quality. PM10 is likely causing health risk.,"Wear N95 mask. Avoid jogging, cycling, and long exposure.",Avoid high-traffic routes and prefer public transport.,6,100,High,Stage I - Poor,AQI Poor: basic pollution control measures advised
New Delhi,28.63576,77.22445,pm25,50.0,83.1,Satisfactory,2026-04-28 14:00:00+05:30,Delayed,Normal,Low,Generally safe,"Air quality is acceptable, but very sensitive people should avoid prolonged outdoor exertion.",Carry a mask if you are sensitive to pollution.,Travel is mostly safe.,1,55,Medium,No GRAP Stage,AQI below GRAP trigger level
"North Campus, DU, Delhi - IMD",28.6573814,77.1585447,pm10,319.9,269.9,Poor,2026-04-28 23:45:00+05:30,Fresh,Emerging Hotspot,Medium,Avoid unnecessary outdoor activity,Poor air quality. PM10 is likely causing health risk.,"Wear N95 mask. Avoid jogging, cycling, and long exposure.",Avoid high-traffic routes and prefer public transport.,5,100,High,Stage I - Poor,AQI Poor: basic pollution control measures advised
"Okhla Phase-2, Delhi - DPCC",28.530785,77.271255,pm10,289.0,239.0,Poor,2026-04-28 23:45:00+05:30,Fresh,Emerging Hotspot,Medium,Avoid unnecessary outdoor activity,Poor air quality. PM10 is likely causing health risk.,"Wear N95 mask. Avoid jogging, cycling, and long exposure.",Avoid high-traffic routes and prefer public transport.,6,100,High,Stage I - Poor,AQI Poor: basic pollution control measures advised
"Patparganj, Delhi - DPCC",28.623748,77.287205,pm10,379.0,336.09,Very Poor,2026-04-28 23:45:00+05:30,Fresh,Hotspot,High,Stay indoors if possible,Very poor air quality. PM10 is the major pollutant.,Use N95 mask outdoors. Keep windows closed. Use air purifier if available.,Avoid unnecessary travel. Prefer metro and enclosed transport.,5,100,High,Stage II - Very Poor,AQI Very Poor: stronger restrictions and public advisory required
"Punjabi Bagh, Delhi - DPCC",28.674045,77.131023,pm10,333.0,283.0,Poor,2026-04-28 23:45:00+05:30,Fresh,Emerging Hotspot,Medium,Avoid unnecessary outdoor activity,Poor air quality. PM10 is likely causing health risk.,"Wear N95 mask. Avoid jogging, cycling, and long exposure.",Avoid high-traffic routes and prefer public transport.,6,100,High,Stage I - Poor,AQI Poor: basic pollution control measures advised
"Pusa, Delhi - DPCC",28.639645,77.146262,pm10,295.0,245.0,Poor,2026-04-28 23:45:00+05:30,Fresh,Emerging Hotspot,Medium,Avoid unnecessary outdoor activity,Poor air quality. PM10 is likely causing health risk.,"Wear N95 mask. Avoid jogging, cycling, and long exposure.",Avoid high-traffic routes and prefer public transport.,6,100,High,Stage I - Poor,AQI Poor: basic pollution control measures advised
"Pusa, Delhi - IMD",28.639645,77.146263,pm10,303.4,253.4,Poor,2026-04-28 15:30:00+05:30,Delayed,Emerging Hotspot,Medium,Avoid unnecessary outdoor activity,Poor air quality. PM10 is likely causing health risk.,"Wear N95 mask. Avoid jogging, cycling, and long exposure.",Avoid high-traffic routes and prefer public transport.,5,85,High,Stage I - Poor,AQI Poor: basic pollution control measures advised
"R K Puram, Delhi - DPCC",28.563262,77.186937,pm10,300.0,250.0,Poor,2026-04-28 23:45:00+05:30,Fresh,Emerging Hotspot,Medium,Avoid unnecessary outdoor activity,Poor air quality. PM10 is likely causing health risk.,"Wear N95 mask. Avoid jogging, cycling, and long exposure.",Avoid high-traffic routes and prefer public transport.,6,100,High,Stage I - Poor,AQI Poor: basic pollution control measures advised
"Rohini, Delhi - DPCC",28.732528,77.11992,pm10,348.0,298.0,Poor,2026-04-28 23:45:00+05:30,Fresh,Emerging Hotspot,Medium,Avoid unnecessary outdoor activity,Poor air quality. PM10 is likely causing health risk.,"Wear N95 mask. Avoid jogging, cycling, and long exposure.",Avoid high-traffic routes and prefer public transport.,6,100,High,Stage I - Poor,AQI Poor: basic pollution control measures advised
"Sector - 125, Noida, UP - UPPCB",28.5447608,77.3231257,pm10,263.0,213.0,Poor,2026-04-28 23:45:00+05:30,Fresh,Emerging Hotspot,Medium,Avoid unnecessary outdoor activity,Poor air quality. PM10 is likely causing health risk.,"Wear N95 mask. Avoid jogging, cycling, and long exposure.",Avoid high-traffic routes and prefer public transport.,6,100,High,Stage I - Poor,AQI Poor: basic pollution control measures advised
"Sector 30, Faridabad - HSPCB",28.4417,77.3217,pm25,70.49,133.4,Moderate,2026-04-27 19:45:00+05:30,Delayed,Normal,Low,Go outside with precautions,Moderate pollution level. PM25 is the dominant pollutant.,Avoid heavy outdoor exercise. Sensitive groups should use an N95 mask.,Prefer metro or low-traffic routes.,6,85,High,No GRAP Stage,AQI below GRAP trigger level
"Sector-1, Noida - UPPCB",28.589247,77.321962,pm10,382.0,339.85,Very Poor,2026-04-28 23:45:00+05:30,Fresh,Hotspot,High,Stay indoors if possible,Very poor air quality. PM10 is the major pollutant.,Use N95 mask outdoors. Keep windows closed. Use air purifier if available.,Avoid unnecessary travel. Prefer metro and enclosed transport.,6,100,High,Stage II - Very Poor,AQI Very Poor: stronger restrictions and public advisory required
"Sector-51, Gurugram - HSPCB",28.4227,77.0667,pm25,174.7,342.21,Very Poor,2026-04-28 23:30:00+05:30,Fresh,Hotspot,High,Stay indoors if possible,Very poor air quality. PM25 is the major pollutant.,Use N95 mask outdoors. Keep windows closed. Use air purifier if available.,Avoid unnecessary travel. Prefer metro and enclosed transport.,6,100,High,Stage II - Very Poor,AQI Very Poor: stronger restrictions and public advisory required
"Shadipur, Delhi - CPCB",28.6514781,77.1473105,pm10,130.0,120.27,Moderate,2026-04-28 23:30:00+05:30,Fresh,Normal,Low,Go outside with precautions,Moderate pollution level. PM10 is the dominant pollutant.,Avoid heavy outdoor exercise. Sensitive groups should use an N95 mask.,Prefer metro or low-traffic routes.,6,100,High,No GRAP Stage,AQI below GRAP trigger level
"Sirifort, Delhi - CPCB",28.5504249,77.2159377,pm10,260.22,210.22,Poor,2026-04-28 23:45:00+05:30,Fresh,Emerging Hotspot,Medium,Avoid unnecessary outdoor activity,Poor air quality. PM10 is likely causing health risk.,"Wear N95 mask. Avoid jogging, cycling, and long exposure.",Avoid high-traffic routes and prefer public transport.,6,100,High,Stage I - Poor,AQI Poor: basic pollution control measures advised
"Sonia Vihar, Delhi - DPCC",28.710508,77.249485,pm10,349.0,299.0,Poor,2026-04-28 23:45:00+05:30,Fresh,Emerging Hotspot,Medium,Avoid unnecessary outdoor activity,Poor air quality. PM10 is likely causing health risk.,"Wear N95 mask. Avoid jogging, cycling, and long exposure.",Avoid high-traffic routes and prefer public transport.,6,100,High,Stage I - Poor,AQI Poor: basic pollution control measures advised
"Sri Aurobindo Marg, Delhi - DPCC",28.531346,77.190156,pm10,186.0,157.48,Moderate,2026-04-28 23:45:00+05:30,Fresh,Normal,Low,Go outside with precautions,Moderate pollution level. PM10 is the dominant pollutant.,Avoid heavy outdoor exercise. Sensitive groups should use an N95 mask.,Prefer metro or low-traffic routes.,6,100,High,No GRAP Stage,AQI below GRAP trigger level
"Vikas Sadan, Gurugram - HSPCB",28.4501238,77.0263051,pm10,109.7,106.78,Moderate,2026-04-28 23:30:00+05:30,Fresh,Normal,Low,Go outside with precautions,Moderate pollution level. PM10 is the dominant pollutant.,Avoid heavy outdoor exercise. Sensitive groups should use an N95 mask.,Prefer metro or low-traffic routes.,6,100,High,No GRAP Stage,AQI below GRAP trigger level
"Vivek Vihar, Delhi - DPCC",28.672342,77.31526,pm10,346.0,296.0,Poor,2026-04-28 23:45:00+05:30,Fresh,Emerging Hotspot,Medium,Avoid unnecessary outdoor activity,Poor air quality. PM10 is likely causing health risk.,"Wear N95 mask. Avoid jogging, cycling, and long exposure.",Avoid high-traffic routes and prefer public transport.,5,100,High,Stage I - Poor,AQI Poor: basic pollution control measures advised
"Wazirpur, Delhi - DPCC",28.699793,77.165453,pm10,374.0,329.82,Very Poor,2026-04-28 23:45:00+05:30,Fresh,Hotspot,High,Stay indoors if possible,Very poor air quality. PM10 is the major pollutant.,Use N95 mask outdoors. Keep windows closed. Use air purifier if available.,Avoid unnecessary travel. Prefer metro and enclosed transport.,5,100,High,Stage II - Very Poor,AQI Very Poor: stronger restrictions and public advisory required
